name,address,email,country,city,longitude,latitude,is_open
礁溪老爺酒店,五峰路69號,https://www.hotelroyal.com.tw,台灣,宜蘭,121.776,24.671,True
碁宏,16702 新營新北投街87號之3,info@碁宏.com,台灣,中和,120.732917,24.033516,False
大八電視股份有限公司,82373 台東大坪巷5號之1,info@大八電視股份有限公司.com,台灣,古坑,121.21804,24.336702,True
台灣BIM有限公司,208 草屯大勇街538號4樓,info@台灣bim有限公司.com,台灣,中壢,121.429917,23.325581,True
旗花（台灣銀）行有限公司,577 竹田縣東湖巷6號之6,info@旗花（台灣銀）行有限公司.com,台灣,蘆洲,121.991148,23.546168,False
雄遠建設事業有限公司,46907 臺東縣建國巷7號9樓台灣,桃園,120.924688,24.105099,False
台灣軟微股份有限公司,288 馬公市西門路699號之2,info@台灣軟微股份有限公司.com,台灣,牡丹,120.749185,23.358219,False